{
	"data": {
		"marketplaces": [
			{
				"id": "",
				"name": "fordham rd mall",
				"city": "bronx",
				"state": "NY",
				"country": "USA",
				"street": "fordham rd",
				"gov_website": "http://www.fordhamroadbid.org",
				"location": [-73.895330,40.862457],
				"merchants":[
					{
							"id": "",
							"type":"",
							"hashtags": ["#shoes"],
							"name": "4 Ever Shoes",
							"verified": "",
							"street_address": "10 East Fordham Road",
							"location": [-73.900754,40.862483],
							"phNumber": ["718-220-1313","718-561-1662"],
							"twitterHandle": "",
							"igHandle": "",
							"fbHandle": "",
							"snapcHandle": "",
							"soundcHandle": "",
							"spotifyHandle": "",
							"website": ""
					},
					{
						"id": "",
						"type":"",
						"hashtags": ["#americaneagle","#ae"],
						"name": "American Eagle Outfitters",
						"verified": "",
						"street_address": "256 East Fordham Road",
						"phNumber": ["718-364-4361"],
						"location": [-73.895490,40.861965],
						"twitterHandle": "",
						"igHandle": "",
						"fbHandle": "",
						"snapcHandle": "",
						"soundcHandle": "",
						"spotifyHandle": "",
						"website": "www.ae.com"
					}
				]
			},
			{
				"id": "",
				"name": "3rd ave hub",
				"city": "bronx",
				"state": "NY",
				"country": "USA",
				"street": "3rd ave",
				"gov_website": "http://hub3rdavebid.com",
				"location": [-73.916421,40.817144]
			},
			{
				"id": "",
				"name": "stadium galleria",
				"city": "bronx",
				"state": "NY",
				"country": "USA",
				"street": "161st st",
				"gov_website": "http://161bid.org/",
				"location": [-73.921896,40.827181]
			},
			{
				"id": "",
				"name": "jerome-gunhill rd mall",
				"city": "bronx",
				"state": "NY",
				"country": "USA",
				"street": "gunhill rd",
				"gov_website": "http://www.jeromegunhillbid.org",
				"location": [-73.877113,40.880728]
			},
			{
				"id": "",
				"name": "white plains square",
				"city": "bronx",
				"state": "NY",
				"country": "USA",
				"street": "white plains rd",
				"gov_website": "http://www.pelhamparkway.com",
				"location": [-73.868037,40.854219]
			},
			{
				"id": "",
				"name": "little italy of the bronx",
				"city": "bronx",
				"state": "NY",
				"country": "USA",
				"street": "arthur ave",
				"gov_website": "http://www.bronxlittleitaly.com/",
				"location": [-73.888554,40.854860]
			},
			{
				"id": "",
				"name": "kingsbridge plaza",
				"nborhood": ["kingsbridge"],
				"city": "bronx",
				"state": "NY",
				"country": "USA",
				"street": "kingsbridge ave",
				"gov_website": "http://kingsbridgebid.nyc",
				"location": [-73.895330,40.862457]
			},
			{
				"id": "",
				"name": "southern blvd mall",
				"city": "bronx",
				"state": "NY",
				"country": "USA",
				"street": "southern blvd",
				"gov_website": "http://southernblvdbid.com",
				"location": [-73.891581,40.823720]
			}
		]
	}
}
